recv_time,is_race_on,timestamp_ms,engine_max_rpm,engine_idle_rpm,current_engine_rpm,acceleration_x,acceleration_y,acceleration_z,velocity_x,velocity_y,velocity_z,angular_velocity_x,angular_velocity_y,angular_velocity_z,yaw,pitch,roll,norm_susp_travel_fl,norm_susp_travel_fr,norm_susp_travel_rl,norm_susp_travel_rr,tire_slip_ratio_fl,tire_slip_ratio_fr,tire_slip_ratio_rl,tire_slip_ratio_rr,wheel_rot_speed_fl,wheel_rot_speed_fr,wheel_rot_speed_rl,wheel_rot_speed_rr,wheel_on_rumble_fl,wheel_on_rumble_fr,wheel_on_rumble_rl,wheel_on_rumble_rr,wheel_in_puddle_fl,wheel_in_puddle_fr,wheel_in_puddle_rl,wheel_in_puddle_rr,surface_rumble_fl,surface_rumble_fr,surface_rumble_rl,surface_rumble_rr,tire_slip_angle_fl,tire_slip_angle_fr,tire_slip_angle_rl,tire_slip_angle_rr,tire_combined_slip_fl,tire_combined_slip_fr,tire_combined_slip_rl,tire_combined_slip_rr,susp_travel_m_fl,susp_travel_m_fr,susp_travel_m_rl,susp_travel_m_rr,car_ordinal,car_class,car_performance_index,drivetrain_type,num_cylinders,position_x,position_y,position_z,speed,power,torque,tire_temp_fl,tire_temp_fr,tire_temp_rl,tire_temp_rr,boost,fuel,distance_traveled,best_lap,last_lap,current_lap,current_race_time,lap_number,race_position,accel,brake,clutch,handbrake,gear,steer,normalized_driving_line,normalized_ai_brake_difference,speed_kmh,speed_mph,gear_label,is_racing,dash_base
1780064440.732,1,49636906,8599.9951171875,799.99951171875,5071.9287109375,6.678424835205078,0.29387199878692627,4.891404151916504,-1.5354747772216797,-0.1737494170665741,28.364145278930664,-0.026651091873645782,0.07290170341730118,-0.10062864422798157,-1.9912559986114502,-0.0037791249342262745,0.012311632744967937,0.5399104952812195,0.34664785861968994,0.6039633750915527,0.4102950096130371,0.20257653295993805,0.17916172742843628,0.17793865501880646,0.21135109663009644,90.80451202392578,90.21480560302734,91.68120574951172,91.65487670898438,0,0,0,0,0.0,0.0,0.0,0.0,0.0,0.0,0.0,0.0,-0.4377736449241638,-0.3775126039981842,0.4153520166873932,0.42778918147087097,0.4823722839355469,0.4178692102432251,0.4518622159957886,0.4771507978439331,0.006953597068786621,-0.009616047143936157,0.013959348201751709,-0.0019046664237976074,269,3,661,2,6,-838.2339477539062,105.2964859008789,-4859.474609375,28.406204223632812,264161.28125,497.44305419921875,166.11402893066406,167.98472595214844,159.46612548828125,159.46612548828125,14.493884086608887,1.0,0.0,0.0,0.0,0.0,1409.3585205078125,0,0,255,0,0,0,3,-21,66,0,102.26,63.54,3,True,244
1780064440.745,1,49636921,8599.9951171875,799.99951171875,5075.38818359375,6.0613484382629395,0.3511672914028168,4.926775932312012,-1.5247077941894531,-0.17514266073703766,28.405546188354492,-0.02693263068795204,0.044286515563726425,-0.09382845461368561,-1.9907686710357666,-0.0040245745331048965,0.011449053883552551,0.5386661887168884,0.35750439763069153,0.6031364798545837,0.4220939576625824,0.19259054958820343,0.17208993434906006,0.17542622983455658,0.20168299973011017,90.77729034423828,90.36041259765625,91.71475219726562,91.74968719482422,0,0,0,0,0.0,0.0,0.0,0.0,0.0,0.0,0.0,0.0,-0.39597412943840027,-0.34095388650894165,0.4042058289051056,0.4158630967140198,0.44032561779022217,0.3819221258163452,0.440632164478302,0.4621884226799011,0.006846912205219269,-0.008685246109962463,0.013891614973545074,-0.0009381771087646484,269,3,661,2,6,-838.4595947265625,105.29576110839844,-4859.59033203125,28.446975708007812,264368.625,497.49713134765625,166.11618041992188,167.9709930419922,159.4765625,159.4765625,14.493924140930176,1.0,0.0,0.0,0.0,0.0,1409.367431640625,0,0,255,0,0,0,3,-20,66,0,102.41,63.63,3,True,244
1780064440.751,1,49636921,8599.9951171875,799.99951171875,5079.1240234375,5.553638458251953,0.4208250641822815,4.985398292541504,-1.5040340423583984,-0.17578831315040588,28.447834014892578,-0.026789620518684387,0.016372429206967354,-0.08612444251775742,-1.9905316829681396,-0.004267911426723003,0.010650279931724072,0.5371337532997131,0.3673742711544037,0.6022476553916931,0.4328158497810364,0.18410807847976685,0.16564272344112396,0.1723073422908783,0.19273318350315094,90.77239227294922,90.5057601928711,91.74427795410156,91.85053253173828,0,0,0,0,0.0,0.0,0.0,0.0,0.0,0.0,0.0,0.0,-0.3541938066482544,-0.30496451258659363,0.3906865119934082,0.40198129415512085,0.399185448884964,0.3470459282398224,0.4269962012767792,0.4457970857620239,0.006715528666973114,-0.007839038968086243,0.013818807899951935,-5.99101185798645e-05,269,3,661,2,6,-838.6866455078125,105.29510498046875,-4859.70654296875,28.488107681274414,264589.71875,497.553955078125,166.1167755126953,167.95591735839844,159.48675537109375,159.48675537109375,14.4939603805542,1.0,0.0,0.0,0.0,0.0,1409.3763427734375,0,0,255,0,0,0,3,-19,66,0,102.56,63.73,3,True,244
1780064440.761,1,49636937,8599.9951171875,799.99951171875,5082.9970703125,5.044999122619629,0.4876171052455902,4.975088119506836,-1.471949577331543,-0.17580202221870422,28.491676330566406,-0.026294995099306107,-0.010484841652214527,-0.07793783396482468,-1.9905390739440918,-0.004508140031248331,0.009914959780871868,0.535294771194458,0.3761896789073944,0.6015628576278687,0.44431236386299133,0.17278575897216797,0.16066280007362366,0.16828081011772156,0.18522201478481293,90.7326889038086,90.67633819580078,91.77530670166016,91.9643325805664,0,0,0,0,0.0,0.0,0.0,0.0,0.0,0.0,0.0,0.0,-0.2930673360824585,-0.2521767318248749,0.37426286935806274,0.38627442717552185,0.34021079540252686,0.299007773399353,0.410354882478714,0.4283866584300995,0.006557859480381012,-0.007083237171173096,0.013762712478637695,0.0008818060159683228,269,3,661,2,6,-838.9169311523438,105.29451751708984,-4859.82421875,28.530216217041016,264820.53125,497.61395263671875,166.11587524414062,167.9394073486328,159.49668884277344,159.49668884277344,14.493990898132324,1.0,0.0,0.0,0.0,0.0,1409.3853759765625,0,0,255,0,0,0,3,-17,66,0,102.71,63.82,3,True,244
1780064440.77,1,49636937,8599.9951171875,799.99951171875,5087.7255859375,5.292618751525879,0.5406349897384644,4.843522548675537,-1.429886817932129,-0.17534345388412476,28.536148071289062,-0.025435063987970352,-0.03597928211092949,-0.0695306807756424,-1.9907828569412231,-0.004740409553050995,0.009254783391952515,0.5330907106399536,0.38364073634147644,0.6008182168006897,0.4566958546638489,0.16481949388980865,0.15779651701450348,0.16540174186229706,0.17731814086437225,90.74217987060547,90.85482025146484,91.8189468383789,92.07896423339844,0,0,0,0,0.0,0.0,0.0,0.0,0.0,0.0,0.0,0.0,-0.25085437297821045,-0.2159079760313034,0.3559877574443817,0.36795711517333984,0.3001556098461151,0.26742473244667053,0.39253664016723633,0.4084533751010895,0.006368890404701233,-0.006444409489631653,0.01370171457529068,0.0018961802124977112,269,3,661,2,6,-839.1484985351562,105.29400634765625,-4859.94189453125,28.57248878479004,265090.40625,497.6809387207031,166.1129913330078,167.92115783691406,159.50619506835938,159.50619506835938,14.494017601013184,1.0,0.0,0.0,0.0,0.0,1409.39453125,0,0,255,0,0,0,3,-16,66,0,102.86,63.91,3,True,244
1780064440.777,1,49636953,8599.9951171875,799.99951171875,5092.88720703125,5.065981864929199,0.5919203162193298,4.873459815979004,-1.3795557022094727,-0.17441514134407043,28.580673217773438,-0.02424982748925686,-0.05961868539452553,-0.061277057975530624,-1.991242527961731,-0.004958571866154671,0.008678016252815723,0.5307369828224182,0.3896391689777374,0.5999658107757568,0.46827414631843567,0.15907107293605804,0.1557316780090332,0.1627466082572937,0.1707514524459839,90.76763153076172,91.03264617919922,91.8723373413086,92.19963073730469,0,0,0,0,0.0,0.0,0.0,0.0,0.0,0.0,0.0,0.0,-0.20942984521389008,-0.18010671436786652,0.3363998532295227,0.34810635447502136,0.26299139857292175,0.23809826374053955,0.37369951605796814,0.3877294063568115,0.006167091429233551,-0.005930125713348389,0.013631895184516907,0.002844594419002533,269,3,661,2,6,-839.3778686523438,105.2935791015625,-4860.05810546875,28.614479064941406,265398.0625,497.760009765625,166.10850524902344,167.9017791748047,159.5149688720703,159.5149688720703,14.494040489196777,1.0,0.0,0.0,0.0,0.0,1409.403564453125,0,0,255,0,0,0,3,-15,66,0,103.01,64.01,3,True,244
1780064440.788,1,49636968,8599.9951171875,799.99951171875,5098.57958984375,4.542989253997803,0.6260693669319153,5.050176620483398,-1.3208341598510742,-0.17353805899620056,28.62602996826172,-0.02296503819525242,-0.08160632103681564,-0.05263926833868027,-1.9919103384017944,-0.005165500566363335,0.008175330236554146,0.5286054611206055,0.3943726718425751,0.6011118292808533,0.4786423146724701,0.15263697504997253,0.1559356302022934,0.1614759862422943,0.16460196673870087,90.78295135498047,91.23599243164062,91.9427490234375,92.32471466064453,0,0,0,0,0.0,0.0,0.0,0.0,0.0,0.0,0.0,0.0,-0.1691589057445526,-0.14524951577186584,0.3158923089504242,0.32679980993270874,0.2278437614440918,0.21310406923294067,0.3547709882259369,0.36591246724128723,0.005984343588352203,-0.005524292588233948,0.01372576504945755,0.00369388610124588,269,3,661,2,6,-839.6094360351562,105.29322052001953,-4860.17529296875,28.657012939453125,265734.125,497.8458251953125,166.10263061523438,167.88119506835938,159.52308654785156,159.52308654785156,14.494063377380371,1.0,0.0,0.0,0.0,0.0,1409.41259765625,0,0,255,0,0,0,3,-14,66,0,103.17,64.1,3,True,244
1780064440.796,1,49636968,8599.9951171875,799.99951171875,5104.7724609375,4.999190330505371,0.6590911149978638,4.796248435974121,-1.2543220520019531,-0.1726970672607422,28.671977996826172,-0.02141394093632698,-0.10176726430654526,-0.04484208673238754,-1.9927704334259033,-0.005358866881579161,0.007745824754238129,0.5267718434333801,0.39806699752807617,0.6040688753128052,0.48760220408439636,0.1482427567243576,0.159148707985878,0.15854229032993317,0.15919645130634308,90.8332748413086,91.46638488769531,92.00203704833984,92.45002746582031,0,0,0,0,0.0,0.0,0.0,0.0,0.0,0.0,0.0,0.0,-0.12999272346496582,-0.11097057163715363,0.2933858335018158,0.30418339371681213,0.19716496765613556,0.1940174698829651,0.3334829807281494,0.3433235287666321,0.005827136337757111,-0.005207553505897522,0.01396799087524414,0.004427820444107056,269,3,661,2,6,-839.8424682617188,105.29293823242188,-4860.29248046875,28.699922561645508,266098.34375,497.9338073730469,166.09547424316406,167.85951232910156,159.5302734375,159.5302734375,14.494078636169434,1.0,0.0,0.0,0.0,0.0,1409.4217529296875,0,0,255,0,0,0,3,-13,66,0,103.32,64.2,3,True,244
1780064440.805,1,49636984,8599.9951171875,799.99951171875,5111.13720703125,4.188470840454102,0.6651240587234497,5.176373481750488,-1.181675910949707,-0.17180892825126648,28.718236923217773,-0.019690046086907387,-0.1198451891541481,-0.038123346865177155,-1.993799090385437,-0.005535563454031944,0.007383387535810471,0.5248991250991821,0.4007658064365387,0.6073883771896362,0.4952693283557892,0.14530721306800842,0.16324438154697418,0.1555979996919632,0.15370236337184906,90.89883422851562,91.69495391845703,92.06519317626953,92.57279205322266,0,0,0,0,0.0,0.0,0.0,0.0,0.0,0.0,0.0,0.0,-0.0936654582619667,-0.07864409685134888,0.2700728476047516,0.28067708015441895,0.17287974059581757,0.18120050430297852,0.3116890788078308,0.3200063109397888,0.005666576325893402,-0.004976168274879456,0.014239899814128876,0.005055859684944153,269,3,661,2,6,-840.0753784179688,105.29271697998047,-4860.40966796875,28.743051528930664,266470.40625,498.01153564453125,166.0872039794922,167.8370819091797,159.5365447998047,159.5365447998047,14.494093894958496,1.0,0.0,0.0,0.0,0.0,1409.4307861328125,0,0,255,0,0,0,3,-11,65,0,103.47,64.3,3,True,244
1780064440.814,1,49636984,8599.9951171875,799.99951171875,5117.92724609375,5.350539207458496,0.6604976058006287,4.641567230224609,-1.1051387786865234,-0.1708911955356598,28.764047622680664,-0.01791037991642952,-0.1355375498533249,-0.0325201079249382,-1.994962453842163,-0.005693408660590649,0.00708038592711091,0.5228531360626221,0.4023197591304779,0.6104186773300171,0.5014755725860596,0.14267422258853912,0.16697335243225098,0.15345720946788788,0.14947441220283508,90.9674072265625,91.90876770019531,92.15042877197266,92.70661163330078,0,0,0,0,0.0,0.0,0.0,0.0,0.0,0.0,0.0,0.0,-0.05960221588611603,-0.047787051647901535,0.24648085236549377,0.256670743227005,0.15462328493595123,0.1736770123243332,0.2903479337692261,0.29702267050743103,0.0054911598563194275,-0.004842936992645264,0.01448812335729599,0.005564235150814056,269,3,661,2,6,-840.3057250976562,105.29255676269531,-4860.5244140625,28.785778045654297,266859.9375,498.091796875,166.07814025878906,167.81443786621094,159.5417938232422,159.5417938232422,14.494109153747559,1.0,0.0,0.0,0.0,0.0,1409.439697265625,0,0,255,0,0,0,3,-10,65,0,103.63,64.39,3,True,244
1780064440.823,1,49637000,8599.9951171875,799.99951171875,5125.26123046875,5.0933027267456055,0.6674265265464783,4.837260723114014,-1.0241737365722656,-0.1701180636882782,28.810321807861328,-0.016229109838604927,-0.14915181696414948,-0.028068114072084427,-1.9962661266326904,-0.005836399272084236,0.006820037495344877,0.520534336566925,0.4029581546783447,0.6131360530853271,0.5065032243728638,0.14055560529232025,0.17052611708641052,0.15228666365146637,0.14705635607242584,91.04772186279297,92.11714935302734,92.24784851074219,92.85653686523438,0,0,0,0,0.0,0.0,0.0,0.0,0.0,0.0,0.0,0.0,-0.02852441370487213,-0.01921309158205986,0.2227088063955307,0.23261381685733795,0.14342078566551208,0.17160506546497345,0.26979705691337585,0.2751994729042053,0.005292356014251709,-0.004788205027580261,0.01471070945262909,0.005976065993309021,269,3,661,2,6,-840.5386962890625,105.2924575805664,-4860.64013671875,28.829021453857422,267283.53125,498.17913818359375,166.06834411621094,167.79129028320312,159.54605102539062,159.54605102539062,14.494120597839355,1.0,0.0,0.0,0.0,0.0,1409.44873046875,0,0,255,0,0,0,3,-9,65,0,103.78,64.49,3,True,244
1780064440.834,1,49637015,8599.9951171875,799.99951171875,5132.8349609375,5.29196834564209,0.6576552987098694,4.619794845581055,-0.9403295516967773,-0.169683039188385,28.856815338134766,-0.01483325008302927,-0.16057612001895905,-0.024892225861549377,-1.9976847171783447,-0.005965779535472393,0.006592451129108667,0.5179598331451416,0.4028736650943756,0.6153064370155334,0.5104956030845642,0.1394851803779602,0.17385414242744446,0.15155769884586334,0.1450263112783432,91.14569854736328,92.31802368164062,92.35653686523438,93.00277709960938,0,0,0,0,0.0,0.0,0.0,0.0,0.0,0.0,0.0,0.0,-0.0003709007578436285,0.007036950904875994,0.19893275201320648,0.20829565823078156,0.1394856721162796,0.17399649322032928,0.2500879168510437,0.25381040573120117,0.005071625113487244,-0.004795446991920471,0.014888495206832886,0.006303094327449799,269,3,661,2,6,-840.7728881835938,105.29241180419922,-4860.755859375,28.872631072998047,267726.5,498.2713317871094,166.05807495117188,167.7680206298828,159.54937744140625,159.54937744140625,14.494128227233887,1.0,0.0,0.0,0.0,0.0,1409.457763671875,0,0,255,0,0,0,3,-8,65,0,103.94,64.59,3,True,244
1780064440.841,1,49637015,8599.9951171875,799.99951171875,5140.47900390625,5.012145519256592,0.6238295435905457,4.912299156188965,-0.853759765625,-0.1696603149175644,28.9031925201416,-0.013849116861820221,-0.16905756294727325,-0.021605471149086952,-1.9991846084594727,-0.006083969492465258,0.006394883152097464,0.5152150392532349,0.40230482816696167,0.6169661283493042,0.5132402181625366,0.13927938044071198,0.17763078212738037,0.15047553181648254,0.14308999478816986,91.25653839111328,92.51837921142578,92.46544647216797,93.14490509033203,0,0,0,0,0.0,0.0,0.0,0.0,0.0,0.0,0.0,0.0,0.04405409097671509,0.049852870404720306,0.17524999380111694,0.1839865893125534,0.14608047902584076,0.18449391424655914,0.23098798096179962,0.2330789864063263,0.0048362985253334045,-0.004844218492507935,0.015024445950984955,0.006527915596961975,269,3,661,2,6,-841.0067138671875,105.29240417480469,-4860.87109375,28.916296005249023,268175.34375,498.3650817871094,166.0476531982422,167.7449493408203,159.55165100097656,159.55165100097656,14.494135856628418,1.0,0.0,0.0,0.0,0.0,1409.466796875,0,0,255,0,0,0,3,-6,65,0,104.1,64.68,3,True,244
1780064440.851,1,49637031,8599.9951171875,799.99951171875,5148.0615234375,4.024157524108887,0.5877601504325867,5.246265888214111,-0.7677249908447266,-0.17012083530426025,28.948984146118164,-0.013249400071799755,-0.17493408918380737,-0.0193239226937294,-2.0007266998291016,-0.006194079294800758,0.006224836688488722,0.512150764465332,0.4014158248901367,0.6182043552398682,0.5151827335357666,0.1394466757774353,0.18156597018241882,0.14907369017601013,0.14114634692668915,91.37982177734375,92.7077407836914,92.57697296142578,93.27979278564453,0,0,0,0,0.0,0.0,0.0,0.0,0.0,0.0,0.0,0.0,0.06695753335952759,0.07201418280601501,0.15221014618873596,0.16026249527931213,0.1546889990568161,0.19532600045204163,0.21305139362812042,0.2135564535856247,0.0045735761523246765,-0.004920437932014465,0.015125870704650879,0.00668703019618988,269,3,661,2,6,-841.2381591796875,105.29242706298828,-4860.9853515625,28.95966339111328,268622.25,498.4587707519531,166.03761291503906,167.72250366210938,159.55296325683594,159.55296325683594,14.49414348602295,1.0,0.0,0.0,0.0,0.0,1409.4757080078125,0,0,255,0,0,0,3,-5,65,0,104.25,64.78,3,True,244
1780064440.86,1,49637031,8599.9951171875,799.99951171875,5156.01513671875,4.683043479919434,0.5485783219337463,5.055911064147949,-0.6817998886108398,-0.1711341142654419,28.994949340820312,-0.012985466048121452,-0.1786034256219864,-0.017873743548989296,-2.0023226737976074,-0.006301666144281626,0.006069341208785772,0.5089373588562012,0.40020424127578735,0.6190136075019836,0.5164304375648499,0.14020872116088867,0.18443797528743744,0.14793258905410767,0.14017359912395477,91.51390075683594,92.8816909790039,92.70481872558594,93.42350006103516,0,0,0,0,0.0,0.0,0.0,0.0,0.0,0.0,0.0,0.0,0.08689577132463455,0.09152802079916,0.12994113564491272,0.137170672416687,0.1649526059627533,0.20589983463287354,0.19689781963825226,0.19612351059913635,0.004298068583011627,-0.005024313926696777,0.01519215852022171,0.0067892372608184814,269,3,661,2,6,-841.4722290039062,105.29248046875,-4861.10009765625,29.003467559814453,269081.96875,498.55364990234375,166.0277862548828,167.70028686523438,159.55337524414062,159.55337524414062,14.49415111541748,1.0,0.0,0.0,0.0,0.0,1409.4847412109375,0,0,255,0,0,0,3,-4,65,0,104.41,64.88,3,True,244
1780064440.87,1,49637046,8599.9951171875,799.99951171875,5164.287109375,4.762430191040039,0.5179501175880432,4.833800315856934,-0.5960464477539062,-0.17275883257389069,29.040729522705078,-0.01302114687860012,-0.18049269914627075,-0.01635553687810898,-2.0039446353912354,-0.006408922839909792,0.005926593206822872,0.5054847598075867,0.398655503988266,0.6194148659706116,0.5171076059341431,0.14130781590938568,0.18681488931179047,0.14798521995544434,0.13985271751880646,91.6566390991211,93.04878234863281,92.84505462646484,93.57268524169922,0,0,0,0,0.0,0.0,0.0,0.0,0.0,0.0,0.0,0.0,0.1037423238158226,0.10820988565683365,0.10820543020963669,0.11462891101837158,0.17530079185962677,0.21589158475399017,0.18332496285438538,0.18082745373249054,0.0040020570158958435,-0.005157098174095154,0.015225030481815338,0.006844706833362579,269,3,661,2,6,-841.707275390625,105.29256439208984,-4861.21484375,29.0473575592041,269565.5,498.65399169921875,166.01829528808594,167.67848205566406,159.55291748046875,159.55291748046875,14.494158744812012,1.0,0.0,0.0,0.0,0.0,1409.4937744140625,0,0,255,0,0,0,3,-3,65,0,104.57,64.98,3,True,244
1780064440.878,1,49637046,8599.9951171875,799.99951171875,5172.716796875,4.50913143157959,0.46771225333213806,5.028445720672607,-0.5104875564575195,-0.1751805692911148,29.085826873779297,-0.01310054212808609,-0.18129466474056244,-0.01425552275031805,-2.005563259124756,-0.006516137160360813,0.005801808554679155,0.5004665851593018,0.39576274156570435,0.6194695234298706,0.5171471238136292,0.14319142699241638,0.19021053612232208,0.14766104519367218,0.1400495320558548,91.80977630615234,93.2260971069336,92.98261260986328,93.72032165527344,0,0,0,0,0.0,0.0,0.0,0.0,0.0,0.0,0.0,0.0,0.11748281866312027,0.12204574048519135,0.0867546796798706,0.09245018661022186,0.18521878123283386,0.22599825263023376,0.1712605059146881,0.16781212389469147,0.00357181578874588,-0.005405113101005554,0.01522950828075409,0.006847940385341644,269,3,661,2,6,-841.9408569335938,105.29266357421875,-4861.32861328125,29.090831756591797,270059.3125,498.7568359375,166.00926208496094,167.65725708007812,159.55177307128906,159.55177307128906,14.494166374206543,1.0,0.0,0.0,0.0,0.0,1409.502685546875,0,0,255,0,0,0,3,-2,65,0,104.73,65.07,3,True,244
1780064440.887,1,49637062,8599.9951171875,799.99951171875,5181.35205078125,4.726224899291992,0.40782758593559265,4.897786617279053,-0.42675304412841797,-0.17833299934864044,29.13096809387207,-0.012765724211931229,-0.18038010597229004,-0.014265904203057289,-2.0071911811828613,-0.006623406894505024,0.005686063319444656,0.49405431747436523,0.39140135049819946,0.6191022396087646,0.5168309211730957,0.14514926075935364,0.19530346989631653,0.14766548573970795,0.1398291140794754,91.9700927734375,93.41495513916016,93.1312026977539,93.85685729980469,0,0,0,0,0.0,0.0,0.0,0.0,0.0,0.0,0.0,0.0,0.12946738302707672,0.13426826894283295,0.06617038697004318,0.07099469006061554,0.1944996565580368,0.2370050847530365,0.16181352734565735,0.15681971609592438,0.0030220523476600647,-0.005779042840003967,0.015199422836303711,0.006822042167186737,269,3,661,2,6,-842.1765747070312,105.29277038574219,-4861.44287109375,29.1346378326416,270565.75,498.862060546875,166.00050354003906,167.6362762451172,159.5500030517578,159.5500030517578,14.494174003601074,1.0,0.0,0.0,0.0,0.0,1409.51171875,0,0,255,0,0,0,3,-1,65,0,104.88,65.17,3,True,244
1780064440.898,1,49637078,8599.9951171875,799.99951171875,5189.96728515625,4.635477066040039,0.34465348720550537,4.8135504722595215,-0.34742069244384766,-0.18193663656711578,29.176204681396484,-0.01168003585189581,-0.1774720996618271,-0.01683722622692585,-2.0088088512420654,-0.006724177394062281,0.005554386880248785,0.4867928624153137,0.38618606328964233,0.6184881925582886,0.5163653492927551,0.14832375943660736,0.19891545176506042,0.14855574071407318,0.1389361023902893,92.14939880371094,93.5807113647461,93.29057312011719,93.98418426513672,0,0,0,0,0.0,0.0,0.0,0.0,0.0,0.0,0.0,0.0,0.13977579772472382,0.14454412460327148,0.0474177710711956,0.051265325397253036,0.2038068026304245,0.245886892080307,0.15593990683555603,0.14809244871139526,0.0023994818329811096,-0.006226181983947754,0.015149123966693878,0.006783902645111084,269,3,661,2,6,-842.4140625,105.29287719726562,-4861.5576171875,29.17884063720703,271074.375,498.96832275390625,165.99195861816406,167.61557006835938,159.54766845703125,159.54766845703125,14.494174003601074,1.0,0.0,0.0,0.0,0.0,1409.520751953125,0,0,255,0,0,0,3,0,65,0,105.04,65.27,3,True,244
1780064440.905,1,49637078,8599.9951171875,799.99951171875,5198.31640625,4.54756498336792,0.30205237865448,4.830464839935303,-0.2742490768432617,-0.1856822669506073,29.221702575683594,-0.010133848525583744,-0.17332462966442108,-0.02077568881213665,-2.0104005336761475,-0.00681318948045373,0.00539020262658596,0.4790678918361664,0.3805992007255554,0.617581307888031,0.5157086253166199,0.15237858891487122,0.19866496324539185,0.14984378218650818,0.1378837525844574,92.34615325927734,93.69859313964844,93.45671844482422,94.10883331298828,0,0,0,0,0.0,0.0,0.0,0.0,0.0,0.0,0.0,0.0,0.13275255262851715,0.1367885172367096,0.030574142932891846,0.03359963372349739,0.20209521055221558,0.2412029504776001,0.15293115377426147,0.14191852509975433,0.0017371699213981628,-0.006705179810523987,0.01507483422756195,0.006730109453201294,269,3,661,2,6,-842.6533203125,105.2929916381836,-4861.6728515625,29.22357940673828,271571.59375,499.0730285644531,165.98361206054688,167.59519958496094,159.54486083984375,159.54486083984375,14.494174003601074,1.0,0.0,0.0,0.0,0.0,1409.5299072265625,0,0,255,0,0,0,3,0,64,0,105.2,65.37,3,True,244
1780064440.945,1,49637093,8599.9951171875,799.99951171875,5206.24267578125,4.339775085449219,0.2316475212574005,4.76267671585083,-0.20908355712890625,-0.18929488956928253,29.266921997070312,-0.008317312225699425,-0.16870515048503876,-0.025345558300614357,-2.0119388103485107,-0.0068864161148667336,0.005187810864299536,0.4709624648094177,0.37493622303009033,0.6162720322608948,0.5150033235549927,0.15703685581684113,0.19440990686416626,0.1513056606054306,0.13669247925281525,92.5508804321289,93.7745361328125,93.62394714355469,94.22956085205078,0,0,0,0,0.0,0.0,0.0,0.0,0.0,0.0,0.0,0.0,0.11496841162443161,0.11801755428314209,0.015773145481944084,0.018225781619548798,0.19462351500988007,0.22742769122123718,0.15212558209896088,0.1379021853208542,0.0010422393679618835,-0.007190704345703125,0.014967590570449829,0.006672337651252747,269,3,661,2,6,-842.89111328125,105.2930908203125,-4861.787109375,29.268281936645508,272040.46875,499.1649169921875,165.9752197265625,167.57516479492188,159.541748046875,159.541748046875,14.494174003601074,1.0,0.0,0.0,0.0,0.0,1409.5389404296875,0,0,255,0,0,0,3,0,64,0,105.37,65.47,3,True,244
1780064440.945,1,49637093,8599.9951171875,799.99951171875,5214.1552734375,4.128789901733398,0.18013446033000946,4.786426544189453,-0.15047264099121094,-0.19267889857292175,29.312480926513672,-0.006249982863664627,-0.163731187582016,-0.029891900718212128,-2.013446569442749,-0.006942871026694775,0.004941490478813648,0.4626303017139435,0.36942946910858154,0.6144091486930847,0.5144267678260803,0.1618381142616272,0.1894514262676239,0.15272320806980133,0.1352750062942505,92.75735473632812,93.8501205444336,93.7916259765625,94.34815979003906,0,0,0,0,0.0,0.0,0.0,0.0,0.0,0.0,0.0,0.0,0.09877166897058487,0.10101494193077087,0.002730728592723608,0.004817373584955931,0.18959805369377136,0.21469946205615997,0.15274761617183685,0.13536076247692108,0.00032787024974823,-0.007662832736968994,0.014814995229244232,0.0066251084208488464,269,3,661,2,6,-843.1314697265625,105.29318237304688,-4861.90234375,29.313499450683594,272491.125,499.234375,165.96636962890625,167.55471801757812,159.5383758544922,159.5383758544922,14.494174003601074,1.0,0.0,0.0,0.0,0.0,1409.548095703125,0,0,255,0,0,0,3,0,64,0,105.53,65.57,3,True,244
1780064440.946,1,49637109,8599.9951171875,799.99951171875,5222.07958984375,3.277433395385742,0.1389928013086319,4.9965996742248535,-0.0983419418334961,-0.1956614851951599,29.357990264892578,-0.004025539383292198,-0.1584995687007904,-0.033923983573913574,-2.014908790588379,-0.006980213336646557,0.004655992146581411,0.45412224531173706,0.36439165472984314,0.6120871305465698,0.5140798687934875,0.1664755493402481,0.1846487820148468,0.15412816405296326,0.13405460119247437,92.96298217773438,93.9247817993164,93.9596939086914,94.46822357177734,0,0,0,0,0.0,0.0,0.0,0.0,0.0,0.0,0.0,0.0,0.08400873839855194,0.08563466370105743,-0.00873223040252924,-0.006818372756242752,0.1864713877439499,0.20353984832763672,0.1543753296136856,0.13422788679599762,-0.0004015788435935974,-0.008094757795333862,0.014624789357185364,0.006596691906452179,269,3,661,2,6,-843.3724365234375,105.29326629638672,-4862.01806640625,29.358806610107422,272943.34375,499.30419921875,165.95716857910156,167.53404235839844,159.53485107421875,159.53485107421875,14.494174003601074,1.0,0.0,0.0,0.0,0.0,1409.5572509765625,0,0,255,0,0,0,3,0,64,0,105.69,65.67,3,True,244
1780064440.946,1,49637109,8599.9951171875,799.99951171875,5230.01513671875,3.0953521728515625,0.1025921180844307,4.96491813659668,-0.05218696594238281,-0.19813573360443115,29.40341567993164,-0.001727449707686901,-0.15306773781776428,-0.03720477223396301,-2.0163216590881348,-0.0069974749349057674,0.004337738733738661,0.44564202427864075,0.3598349094390869,0.60932856798172,0.5138770341873169,0.17082373797893524,0.1798820197582245,0.15553265810012817,0.13312895596027374,93.16465759277344,93.9999008178711,94.12816619873047,94.59083557128906,0,0,0,0,0.0,0.0,0.0,0.0,0.0,0.0,0.0,0.0,0.07059011608362198,0.07176972180604935,-0.018771035596728325,-0.016867687925696373,0.184834286570549,0.19367094337940216,0.1566612869501114,0.1341932862997055,-0.0011286437511444092,-0.00848543643951416,0.014398828148841858,0.006580077111721039,269,3,661,2,6,-843.61376953125,105.29334259033203,-4862.1337890625,29.40412712097168,273396.34375,499.3741149902344,165.94773864746094,167.51319885253906,159.53121948242188,159.53121948242188,14.494174003601074,1.0,0.0,0.0,0.0,0.0,1409.56640625,0,0,255,0,0,0,3,0,64,0,105.85,65.78,3,True,244
1780064440.949,1,49637125,8599.9951171875,799.99951171875,5237.94873046875,2.316854238510132,0.04784521460533142,5.179242134094238,-0.011776924133300781,-0.2001163214445114,29.448389053344727,0.00048240553587675095,-0.14753834903240204,-0.039578959345817566,-2.0176737308502197,-0.006994877941906452,0.0039969817735254765,0.4373290538787842,0.3558581471443176,0.605201780796051,0.5138702988624573,0.17455686628818512,0.17537514865398407,0.15731482207775116,0.1324365735054016,93.35826110839844,94.07611083984375,94.30073547363281,94.71382904052734,0,0,0,0,0.0,0.0,0.0,0.0,0.0,0.0,0.0,0.0,0.058432672172784805,0.0593554861843586,-0.027488019317388535,-0.025470828637480736,0.18407736718654633,0.1851472705602646,0.15969829261302948,0.13486365973949432,-0.0018413662910461426,-0.008826389908790588,0.014060787856578827,0.0065795257687568665,269,3,661,2,6,-843.8535766601562,105.29339599609375,-4862.2490234375,29.44906997680664,273849.125,499.44390869140625,165.93821716308594,167.49234008789062,159.52755737304688,159.52755737304688,14.494174003601074,1.0,0.0,0.0,0.0,0.0,1409.575439453125,0,0,255,0,0,0,3,0,64,0,106.02,65.88,3,True,244
1780064440.96,1,49637140,8599.9951171875,799.99951171875,5246.12060546875,2.037074565887451,0.025146499276161194,4.9911956787109375,0.024025917053222656,-0.20192627608776093,29.49356460571289,0.002407863736152649,-0.14187905192375183,-0.0412384569644928,-2.018984317779541,-0.006974299903959036,0.003635966219007969,0.42910337448120117,0.3523930311203003,0.5995108485221863,0.5121561884880066,0.17754191160202026,0.17112621665000916,0.1592869609594345,0.13280300796031952,93.54495239257812,94.15584564208984,94.47583770751953,94.85074615478516,0,0,0,0,0.0,0.0,0.0,0.0,0.0,0.0,0.0,0.0,0.04738029092550278,0.04812520369887352,-0.03508845716714859,-0.03292122855782509,0.18375533819198608,0.17776450514793396,0.16310590505599976,0.1368226855993271,-0.0025466084480285645,-0.009123474359512329,0.013594627380371094,0.006439119577407837,269,3,661,2,6,-844.095458984375,105.29344177246094,-4862.365234375,29.494264602661133,274312.40625,499.5149230957031,165.92852783203125,167.4712371826172,159.52383422851562,159.52383422851562,14.494174003601074,1.0,0.0,0.0,0.0,0.0,1409.5845947265625,0,0,255,0,0,0,3,0,64,0,106.18,65.98,3,True,244
1780064440.968,1,49637140,8599.9951171875,799.99951171875,5254.3896484375,1.3016469478607178,-0.019685128703713417,5.1710920333862305,0.055339813232421875,-0.20365756750106812,29.538658142089844,0.003990883007645607,-0.13618218898773193,-0.04230818152427673,-2.0202434062957764,-0.00693882443010807,0.003262988990172744,0.42110300064086914,0.3494976758956909,0.5927394032478333,0.5096956491470337,0.17982947826385498,0.16769923269748688,0.16145935654640198,0.13336922228336334,93.72452545166016,94.24714660644531,94.653564453125,94.98788452148438,0,0,0,0,0.0,0.0,0.0,0.0,0.0,0.0,0.0,0.0,0.03737335652112961,0.038052186369895935,-0.04164794459939003,-0.03929954022169113,0.1836720108985901,0.1719622015953064,0.16674433648586273,0.13903886079788208,-0.003232531249523163,-0.009371712803840637,0.013039954006671906,0.0062375664710998535,269,3,661,2,6,-844.3377075195312,105.29346466064453,-4862.48193359375,29.539413452148438,274783.40625,499.58734130859375,165.9187469482422,167.45008850097656,159.52005004882812,159.52005004882812,14.494174003601074,1.0,0.0,0.0,0.0,0.0,1409.59375,0,0,255,0,0,0,3,0,64,0,106.34,66.08,3,True,244
1780064440.977,1,49637156,8599.9951171875,799.99951171875,5262.60498046875,1.6538386344909668,-0.05913363769650459,4.980481147766113,0.08229827880859375,-0.20535382628440857,29.58319854736328,0.005211228504776955,-0.1305561661720276,-0.042903218418359756,-2.021437168121338,-0.006892129313200712,0.002886794274672866,0.41346821188926697,0.3472735285758972,0.5853278040885925,0.5070660710334778,0.1814761906862259,0.1651858240365982,0.16352593898773193,0.134034663438797,93.89573669433594,94.345458984375,94.82914733886719,95.12483978271484,0,0,0,0,0.0,0.0,0.0,0.0,0.0,0.0,0.0,0.0,0.028447497636079788,0.02911737747490406,-0.047184593975543976,-0.04463304206728935,0.1836923211812973,0.16773246228694916,0.1701972931623459,0.14127065241336823,-0.0038871094584465027,-0.009562402963638306,0.012432843446731567,0.006022170186042786,269,3,661,2,6,-844.57763671875,105.29346466064453,-4862.59716796875,29.58402442932129,275254.5,499.66009521484375,165.90907287597656,167.4291229248047,159.5163116455078,159.5163116455078,14.494174003601074,1.0,0.0,0.0,0.0,0.0,1409.602783203125,0,0,255,0,0,0,3,0,64,0,106.5,66.18,3,True,244
1780064440.988,1,49637156,8599.9951171875,799.99951171875,5271.86328125,1.422423005104065,-0.1049351915717125,4.901951789855957,0.1233968734741211,-0.20704907178878784,29.626983642578125,0.006835375912487507,-0.12008286267518997,-0.03407302498817444,-2.022566795349121,-0.006833096966147423,0.002547621726989746,0.40661728382110596,0.3455120623111725,0.5777466893196106,0.5040698051452637,0.1854264885187149,0.17526644468307495,0.16263359785079956,0.1361505687236786,94.05699920654297,94.58354187011719,94.97003936767578,95.27322387695312,0,0,0,0,0.0,0.0,0.0,0.0,0.0,0.0,0.0,0.0,0.21447063982486725,0.21951697766780853,-0.05454530566930771,-0.05213650315999985,0.2835147976875305,0.2809021770954132,0.17153681814670563,0.14579160511493683,-0.00447448343038559,-0.009713426232337952,0.01181185245513916,0.005776733160018921,269,3,661,2,6,-844.819580078125,105.2934341430664,-4862.71337890625,29.627960205078125,275768.25,499.73638916015625,165.8992919921875,167.4080352783203,159.51254272460938,159.51254272460938,14.494174003601074,1.0,0.0,0.0,0.0,0.0,1409.61181640625,0,0,255,0,0,0,3,5,64,0,106.66,66.28,3,True,244
1780064440.995,1,49637171,8599.9951171875,799.99951171875,5280.37548828125,1.3240699768066406,-0.13236743211746216,4.845739364624023,0.16539764404296875,-0.20825190842151642,29.670948028564453,0.007990755140781403,-0.1076989471912384,-0.026816442608833313,-2.0235841274261475,-0.006761754862964153,0.002289805794134736,0.4001646339893341,0.34463363885879517,0.5700017213821411,0.5010743141174316,0.1778465211391449,0.18449780344963074,0.16154105961322784,0.14076752960681915,94.14531707763672,94.77313995361328,95.14080810546875,95.42720794677734,0,0,0,0,0.0,0.0,0.0,0.0,0.0,0.0,0.0,0.0,0.2091429978609085,0.21560068428516388,-0.06292448192834854,-0.06080999970436096,0.27453628182411194,0.28376591205596924,0.1733637899160385,0.1533406376838684,-0.005027711391448975,-0.009788736701011658,0.011177435517311096,0.0055313631892204285,269,3,661,2,6,-845.0616455078125,105.29338073730469,-4862.82958984375,29.672142028808594,276270.8125,499.8163757324219,165.89251708984375,167.38975524902344,159.5089111328125,159.5089111328125,14.494174003601074,1.0,0.0,0.0,0.0,0.0,1409.620849609375,0,0,255,0,0,0,3,5,64,0,106.82,66.37,3,True,244
1780064441.003,1,49637171,8599.9951171875,799.99951171875,5288.20654296875,1.8389370441436768,-0.15739475190639496,4.76942253112793,0.20215702056884766,-0.20908650755882263,29.715147018432617,0.0085467379540205,-0.09519501775503159,-0.022567901760339737,-2.0244863033294678,-0.0066841477528214455,0.0020791348069906235,0.39436259865760803,0.34417393803596497,0.5624418258666992,0.4979979395866394,0.17214623093605042,0.1857505440711975,0.16152091324329376,0.14388000965118408,94.25858306884766,94.89108276367188,95.31086730957031,95.57206726074219,0,0,0,0,0.0,0.0,0.0,0.0,0.0,0.0,0.0,0.0,0.19905032217502594,0.20601466298103333,-0.06964457035064697,-0.06771005690097809,0.26316410303115845,0.27739018201828003,0.17589591443538666,0.15901605784893036,-0.005525156855583191,-0.009828150272369385,0.010558180510997772,0.005279369652271271,269,3,661,2,6,-845.3036499023438,105.29330444335938,-4862.9453125,29.71657371520996,276726.84375,499.8878479003906,165.8865509033203,167.37271118164062,159.50537109375,159.50537109375,14.494174003601074,1.0,0.0,0.0,0.0,0.0,1409.6298828125,0,0,255,0,0,0,3,6,64,0,106.98,66.47,3,True,244
1780064441.012,1,49637187,8599.9951171875,799.99951171875,5295.642578125,1.621472716331482,-0.17989711463451385,4.815697193145752,0.23345947265625,-0.20962779223918915,29.759078979492188,0.008607815951108932,-0.08283939957618713,-0.02002738043665886,-2.0252685546875,-0.006605538539588451,0.001897549955174327,0.38952359557151794,0.3440517783164978,0.5551409125328064,0.4948676526546478,0.16784395277500153,0.18418118357658386,0.16128318011760712,0.1459236741065979,94.38459777832031,94.98202514648438,95.47907257080078,95.70452117919922,0,0,0,0,0.0,0.0,0.0,0.0,0.0,0.0,0.0,0.0,0.18823884427547455,0.19519644975662231,-0.0748782604932785,-0.07300688326358795,0.25220122933387756,0.2683735489845276,0.17781737446784973,0.1631677746772766,-0.005940034985542297,-0.00983862578868866,0.00996013730764389,0.005022957921028137,269,3,661,2,6,-845.5436401367188,105.29320526123047,-4863.06005859375,29.76073455810547,277157.3125,499.9549865722656,165.88038635253906,167.35585021972656,159.50196838378906,159.50196838378906,14.494174003601074,1.0,0.0,0.0,0.0,0.0,1409.6387939453125,0,0,255,0,0,0,3,6,64,0,107.14,66.57,3,True,244
1780064441.022,1,49637203,8599.9951171875,799.99951171875,5302.974609375,1.4009742736816406,-0.19477123022079468,4.7397894859313965,0.26012706756591797,-0.2099120318889618,29.803634643554688,0.008229123428463936,-0.07046109437942505,-0.018430128693580627,-2.0259478092193604,-0.006528326775878668,0.0017303674248978496,0.38565754890441895,0.3443133234977722,0.5480292439460754,0.49172547459602356,0.1640883982181549,0.18132337927818298,0.1608600616455078,0.1473267823457718,94.51762390136719,95.06238555908203,95.64661407470703,95.83386993408203,0,0,0,0,0.0,0.0,0.0,0.0,0.0,0.0,0.0,0.0,0.1773756891489029,0.18423397839069366,-0.07883252203464508,-0.07696622610092163,0.2416343092918396,0.2584962844848633,0.17913828790187836,0.16621968150138855,-0.006271496415138245,-0.009816199541091919,0.009377598762512207,0.004765570163726807,269,3,661,2,6,-845.7866821289062,105.29308319091797,-4863.17626953125,29.805505752563477,277578.0625,500.0199890136719,165.8738250732422,167.33865356445312,159.49859619140625,159.49859619140625,14.494174003601074,1.0,0.0,0.0,0.0,0.0,1409.6478271484375,0,0,255,0,0,0,3,6,64,0,107.3,66.67,3,True,244
1780064441.033,1,49637203,8599.9951171875,799.99951171875,5310.2412109375,1.2111294269561768,-0.2210661619901657,4.949071884155273,0.2821779251098633,-0.20993824303150177,29.8487606048584,0.007439074572175741,-0.058150630444288254,-0.017411071807146072,-2.0265214443206787,-0.006456437986344099,0.0015716742491349578,0.3826196491718292,0.3450552821159363,0.5413153767585754,0.4886665940284729,0.16051411628723145,0.17774783074855804,0.1601874828338623,0.14827270805835724,94.65422821044922,95.13752746582031,95.81348419189453,95.96100616455078,0,0,0,0,0.0,0.0,0.0,0.0,0.0,0.0,0.0,0.0,0.16616328060626984,0.17273205518722534,-0.08156665414571762,-0.07969261705875397,0.23103034496307373,0.24785208702087402,0.17975859344005585,0.16833214461803436,-0.006531953811645508,-0.009752586483955383,0.008827641606330872,0.004515007138252258,269,3,661,2,6,-846.0327758789062,105.29293060302734,-4863.2939453125,29.850833892822266,277981.84375,500.06103515625,165.86691284179688,167.3211212158203,159.49520874023438,159.49520874023438,14.494174003601074,1.0,0.0,0.0,0.0,0.0,1409.656982421875,0,0,255,0,0,0,3,6,64,0,107.46,66.77,3,True,244
1780064441.041,1,49637218,8599.9951171875,799.99951171875,5317.4521484375,0.5920594930648804,-0.20755235850811005,5.1129374504089355,0.29955577850341797,-0.2097395658493042,29.893957138061523,0.006320050451904535,-0.04610004648566246,-0.016636908054351807,-2.0269839763641357,-0.006393983494490385,0.00141987728420645,0.38045182824134827,0.34645578265190125,0.5350049734115601,0.4858749508857727,0.15756168961524963,0.1737157553434372,0.1592201143503189,0.14882056415081024,94.80106353759766,95.20820617675781,95.97648620605469,96.08489990234375,0,0,0,0,0.0,0.0,0.0,0.0,0.0,0.0,0.0,0.0,0.15548905730247498,0.16171038150787354,-0.08313096314668655,-0.08125735819339752,0.22136516869068146,0.2373339682817459,0.17961570620536804,0.16955919563770294,-0.00671781599521637,-0.009632512927055359,0.00831073522567749,0.004286333918571472,269,3,661,2,6,-846.2792358398438,105.29277038574219,-4863.412109375,29.896194458007812,278380.375,500.0992431640625,165.8596649169922,167.3033905029297,159.4918212890625,159.4918212890625,14.494174003601074,1.0,0.0,0.0,0.0,0.0,1409.6661376953125,0,0,255,0,0,0,3,6,64,0,107.63,66.88,3,True,244
1780064441.051,1,49637218,8599.9951171875,799.99951171875,5324.634765625,1.0444438457489014,-0.19764170050621033,4.788923263549805,0.31235790252685547,-0.2093769758939743,29.93867301940918,0.004978672135621309,-0.034504055976867676,-0.015882203355431557,-2.0273351669311523,-0.006343791261315346,0.0012758721131831408,0.37909790873527527,0.348448246717453,0.529123067855835,0.48334768414497375,0.1561504751443863,0.16933086514472961,0.15790988504886627,0.14909999072551727,94.96134185791016,95.2754898071289,96.13396453857422,96.20606231689453,0,0,0,0,0.0,0.0,0.0,0.0,0.0,0.0,0.0,0.0,0.14505918323993683,0.1507899910211563,-0.08365057408809662,-0.08177699148654938,0.21313174068927765,0.22673897445201874,0.17869792878627777,0.17005376517772675,-0.006833896040916443,-0.00946168601512909,0.007828928530216217,0.004079319536685944,269,3,661,2,6,-846.5233764648438,105.2926025390625,-4863.52880859375,29.941036224365234,278778.5,500.1374206542969,165.85218811035156,167.28567504882812,159.48843383789062,159.48843383789062,14.494174003601074,1.0,0.0,0.0,0.0,0.0,1409.6751708984375,0,0,255,0,0,0,3,5,63,0,107.79,66.98,3,True,244
1780064441.059,1,49637234,8599.9951171875,799.99951171875,5331.9482421875,1.1826446056365967,-0.18637660145759583,4.789776802062988,0.3212413787841797,-0.20886336266994476,29.983551025390625,0.003404435236006975,-0.023154504597187042,-0.01512411329895258,-2.0275838375091553,-0.006307058967649937,0.001137605169788003,0.37838634848594666,0.3508051931858063,0.5236349105834961,0.4810101091861725,0.15475031733512878,0.1658228039741516,0.15631693601608276,0.14944502711296082,95.11936950683594,95.35789489746094,96.28842163085938,96.32951354980469,0,0,0,0,0.0,0.0,0.0,0.0,0.0,0.0,0.0,0.0,0.13679195940494537,0.1421850472688675,-0.08322203904390335,-0.08139028400182724,0.2065422534942627,0.2184348702430725,0.17709006369113922,0.17017106711864471,-0.006894901394844055,-0.009259611368179321,0.007379375398159027,0.0038878396153450012,269,3,661,2,6,-846.7689208984375,105.29242706298828,-4863.64599609375,29.985998153686523,279180.59375,500.17572021484375,165.84439086914062,167.26766967773438,159.48501586914062,159.48501586914062,14.494174003601074,1.0,0.0,0.0,0.0,0.0,1409.6842041015625,0,0,255,0,0,0,3,5,63,0,107.95,67.08,3,True,244
1780064441.068,1,49637250,8599.9951171875,799.99951171875,5339.337890625,0.40450310707092285,-0.16539116203784943,5.128987789154053,0.3262214660644531,-0.20823393762111664,30.028587341308594,0.001544174738228321,-0.0121756661683321,-0.014621674083173275,-2.0277318954467773,-0.00628629932180047,0.0010037414031103253,0.37888291478157043,0.35373687744140625,0.5186160802841187,0.47911757230758667,0.15311859548091888,0.16285863518714905,0.1547185182571411,0.14979341626167297,95.27548217773438,95.44570922851562,96.44390106201172,96.45418548583984,0,0,0,0,0.0,0.0,0.0,0.0,0.0,0.0,0.0,0.0,0.12579071521759033,0.13070110976696014,-0.0818922147154808,-0.08013515919446945,0.19816309213638306,0.20881982147693634,0.17505471408367157,0.16988146305084229,-0.006852328777313232,-0.009008258581161499,0.006968267261981964,0.003732815384864807,269,3,661,2,6,-847.015625,105.29225158691406,-4863.76416015625,30.03108024597168,279589.03125,500.21478271484375,165.8363800048828,167.24948120117188,159.4815216064453,159.4815216064453,14.494174003601074,1.0,0.0,0.0,0.0,0.0,1409.693359375,0,0,255,0,0,0,3,5,63,0,108.11,67.18,3,True,244
1780064441.075,1,49637250,8599.9951171875,799.99951171875,5346.6240234375,0.24337291717529297,-0.13755899667739868,5.13026762008667,0.32752037048339844,-0.2074713557958603,30.07321548461914,-0.0005699261091649532,-0.0017564785666763783,-0.014299126341938972,-2.027782678604126,-0.0062840720638632774,0.0008741650963202119,0.38073667883872986,0.357059121131897,0.5141167044639587,0.47766390442848206,0.1513732671737671,0.16004349291324615,0.1530715674161911,0.14999264478683472,95.42726135253906,95.53544616699219,96.5959701538086,96.5777359008789,0,0,0,0,0.0,0.0,0.0,0.0,0.0,0.0,0.0,0.0,0.11589428037405014,0.1203414797782898,-0.07973842322826385,-0.07804296165704727,0.19064456224441528,0.20023983716964722,0.17259524762630463,0.16908133029937744,-0.006693392992019653,-0.008723422884941101,0.006599709391593933,0.0036137402057647705,269,3,661,2,6,-847.2601318359375,105.29208374023438,-4863.88134765625,30.075714111328125,279993.875,500.253662109375,165.8282012939453,167.23133850097656,159.47799682617188,159.47799682617188,14.494174003601074,1.0,0.0,0.0,0.0,0.0,1409.702392578125,0,0,255,0,0,0,3,5,63,0,108.27,67.28,3,True,244
1780064441.085,1,49637265,8599.9951171875,799.99951171875,5353.9228515625,0.8812205791473389,-0.09463272988796234,4.790200710296631,0.325439453125,-0.2065674066543579,30.118196487426758,-0.002951759845018387,0.008242576383054256,-0.014132753945887089,-2.0277414321899414,-0.006302624475210905,0.0007451858837157488,0.3836928904056549,0.36079707741737366,0.5100517272949219,0.4767023026943207,0.14946752786636353,0.15738806128501892,0.15135039389133453,0.14994660019874573,95.57749938964844,95.62891387939453,96.74761962890625,96.70092010498047,0,0,0,0,0.0,0.0,0.0,0.0,0.0,0.0,0.0,0.0,0.10601730644702911,0.11007480323314667,-0.0768616795539856,-0.07521959394216537,0.18324904143810272,0.19206109642982483,0.16974881291389465,0.16775567829608917,-0.0064399391412734985,-0.00840294361114502,0.00626673549413681,0.003534972667694092,269,3,661,2,6,-847.506591796875,105.29193115234375,-4863.9990234375,30.12066078186035,280397.53125,500.29229736328125,165.8197479248047,167.2129364013672,159.474365234375,159.474365234375,14.494174003601074,1.0,0.0,0.0,0.0,0.0,1409.71142578125,0,0,255,0,0,0,3,5,63,0,108.43,67.38,3,True,244
1780064441.094,1,49637265,8599.9951171875,799.99951171875,5361.22509765625,0.6926686763763428,-0.04809979721903801,4.868616104125977,0.32019615173339844,-0.20556460320949554,30.163311004638672,-0.005554324481636286,0.017723867669701576,-0.014075009152293205,-2.0276119709014893,-0.006344221532344818,0.0006161977653391659,0.3872007429599762,0.364890456199646,0.5064502954483032,0.4761199951171875,0.14760248363018036,0.15489241480827332,0.14950880408287048,0.14972133934497833,95.72771453857422,95.72575378417969,96.89737701416016,96.82411193847656,0,0,0,0,0.0,0.0,0.0,0.0,0.0,0.0,0.0,0.0,0.09644751995801926,0.1000988632440567,-0.07329613715410233,-0.07170715928077698,0.1763196438550949,0.18442191183567047,0.16650886833667755,0.16600722074508667,-0.006139189004898071,-0.00805199146270752,0.005971729755401611,0.0034872740507125854,269,3,661,2,6,-847.7539672851562,105.29180145263672,-4864.1171875,30.16571044921875,280801.53125,500.3309631347656,165.81106567382812,167.1943817138672,159.4706268310547,159.4706268310547,14.494174003601074,1.0,0.0,0.0,0.0,0.0,1409.7205810546875,0,0,255,0,0,0,3,5,63,0,108.6,67.48,3,True,244
1780064441.102,1,49637281,8599.9951171875,799.99951171875,5368.51025390625,0.4312572479248047,-0.008833123371005058,4.907546043395996,0.31198883056640625,-0.20450840890407562,30.208354949951172,-0.00833301804959774,0.02656511217355728,-0.014052513986825943,-2.0274007320404053,-0.006410369649529457,0.00048730956041254103,0.3907548189163208,0.36987945437431335,0.5033707022666931,0.47597500681877136,0.1460176259279251,0.1523572951555252,0.14760564267635345,0.14934059977531433,95.87991333007812,95.82254791259766,97.04497528076172,96.94708251953125,0,0,0,0,0.0,0.0,0.0,0.0,0.0,0.0,0.0,0.0,0.08647049963474274,0.0896829143166542,-0.06915254890918732,-0.06763522326946259,0.16970060765743256,0.17679300904273987,0.16300153732299805,0.16394248604774475,-0.005834475159645081,-0.0076242536306381226,0.005719467997550964,0.003475397825241089,269,3,661,2,6,-848.0010986328125,105.29169464111328,-4864.2353515625,30.21065902709961,281205.0625,500.36962890625,165.8022003173828,167.1757354736328,159.466796875,159.466796875,14.494174003601074,1.0,0.0,0.0,0.0,0.0,1409.7296142578125,0,0,255,0,0,0,3,4,63,0,108.76,67.58,3,True,244
1780064441.112,1,49637281,8599.9951171875,799.99951171875,5375.71044921875,0.2120429277420044,0.03560873121023178,5.021419048309326,0.3013181686401367,-0.20346665382385254,30.25274658203125,-0.011188654229044914,0.034651979804039,-0.013908096589148045,-2.0271174907684326,-0.0065008546225726604,0.00036053539952263236,0.3943943977355957,0.37558048963546753,0.5007429122924805,0.476443886756897,0.144856795668602,0.1499185860157013,0.14569179713726044,0.14877505600452423,96.03238677978516,95.92074584960938,97.1884765625,97.06803131103516,0,0,0,0,0.0,0.0,0.0,0.0,0.0,0.0,0.0,0.0,0.07799621671438217,0.08079998940229416,-0.0645957738161087,-0.06311532855033875,0.16452021896839142,0.1703062504529953,0.15936973690986633,0.16160929203033447,-0.005522429943084717,-0.007135465741157532,0.005504220724105835,0.003513805568218231,269,3,661,2,6,-848.2449340820312,105.29161834716797,-4864.35205078125,30.254932403564453,281605.0625,500.4079895019531,165.79324340820312,167.1573028564453,159.46290588378906,159.46290588378906,14.494174003601074,1.0,0.0,0.0,0.0,0.0,1409.738525390625,0,0,255,0,0,0,3,4,63,0,108.92,67.68,3,True,244
1780064441.133,1,49637296,8599.9951171875,799.99951171875,5382.95654296875,-0.19485163688659668,0.10158386826515198,5.209424018859863,0.28830718994140625,-0.2024841010570526,30.297157287597656,-0.014087777584791183,0.04208986088633537,-0.013561833649873734,-2.0267655849456787,-0.006617194041609764,0.00023563852300867438,0.3980906307697296,0.3815660774707794,0.4986149072647095,0.47750580310821533,0.14397943019866943,0.14776572585105896,0.14375580847263336,0.14809639751911163,96.18623352050781,96.02381134033203,97.33025360107422,97.18927001953125,0,0,0,0,0.0,0.0,0.0,0.0,0.0,0.0,0.0,0.0,0.0693892240524292,0.0718311294913292,-0.05965486541390419,-0.05822696536779404,0.1598278433084488,0.16429978609085083,0.15564201772212982,0.15913178026676178,-0.005205526947975159,-0.006622284650802612,0.005329906940460205,0.003600791096687317,269,3,661,2,6,-848.4892578125,105.29158782958984,-4864.46923828125,30.299205780029297,282005.6875,500.4462585449219,165.7841339111328,167.13876342773438,159.45892333984375,159.45892333984375,14.494174003601074,1.0,0.0,0.0,0.0,0.0,1409.7474365234375,0,0,255,0,0,0,3,4,63,0,109.08,67.78,3,True,244
1780064441.133,1,49637312,8599.9951171875,799.99951171875,5390.3251953125,0.14185607433319092,0.16179737448692322,4.837747097015381,0.2731342315673828,-0.2017318159341812,30.341550827026367,-0.01699773035943508,0.04881547391414642,-0.012920230627059937,-2.026350736618042,-0.006759605370461941,0.0001149573436123319,0.4016822576522827,0.38741764426231384,0.4970402717590332,0.4789135456085205,0.14333999156951904,0.14601317048072815,0.14211782813072205,0.14733508229255676,96.34083557128906,96.13308715820312,97.4737777709961,97.31156921386719,0,0,0,0,0.0,0.0,0.0,0.0,0.0,0.0,0.0,0.0,0.06038263812661171,0.0624825656414032,-0.05445040762424469,-0.053031112998723984,0.1555391103029251,0.15882039070129395,0.15219172835350037,0.1565883904695511,-0.004897594451904297,-0.006120592355728149,0.00520092248916626,0.003716103732585907,269,3,661,2,6,-848.7340087890625,105.2916030883789,-4864.58642578125,30.34345245361328,282412.125,500.4849548339844,165.7748565673828,167.12013244628906,159.45480346679688,159.45480346679688,14.494174003601074,1.0,0.0,0.0,0.0,0.0,1409.75634765625,0,0,255,0,0,0,3,4,63,0,109.24,67.88,3,True,244
1780064441.14,1,49637312,8599.9951171875,799.99951171875,5397.79736328125,-0.4327418804168701,0.20955270528793335,5.145235061645508,0.2562541961669922,-0.20129817724227905,30.385873794555664,-0.019801083952188492,0.0548597015440464,-0.011985689401626587,-2.0258796215057373,-0.006927437614649534,1.2614760862561525e-06,0.4049144685268402,0.39279401302337646,0.4963938295841217,0.48083409667015076,0.14311832189559937,0.1449328064918518,0.14035733044147491,0.14665621519088745,96.49823760986328,96.25154113769531,97.61347961425781,97.43590545654297,0,0,0,0,0.0,0.0,0.0,0.0,0.0,0.0,0.0,0.0,0.053636327385902405,0.05551755800843239,-0.04900055006146431,-0.04763263463973999,0.1528388410806656,0.15520218014717102,0.14866484701633453,0.15419764816761017,-0.004620477557182312,-0.005659639835357666,0.005147971212863922,0.0038734227418899536,269,3,661,2,6,-848.97900390625,105.29166412353516,-4864.7041015625,30.38762092590332,282824.8125,500.5242919921875,165.7654266357422,167.10145568847656,159.45057678222656,159.45057678222656,14.494174003601074,1.0,0.0,0.0,0.0,0.0,1409.7652587890625,0,0,255,0,0,0,3,3,63,0,109.4,67.98,3,True,244
1780064441.148,1,49637328,8599.9951171875,799.99951171875,5405.3037109375,0.17435872554779053,0.2689700424671173,4.833700180053711,0.23808765411376953,-0.2011963278055191,30.429855346679688,-0.02234560251235962,0.060230810195207596,-0.010913366451859474,-2.0253617763519287,-0.007117638364434242,-0.00010289601050317287,0.40740513801574707,0.3976215422153473,0.4967942237854004,0.4830065071582794,0.14334078133106232,0.14450012147426605,0.13845692574977875,0.14597280323505402,96.65767669677734,96.37716674804688,97.74916076660156,97.56025695800781,0,0,0,0,0.0,0.0,0.0,0.0,0.0,0.0,0.0,0.0,0.04758407920598984,0.04928036779165268,-0.043421197682619095,-0.04211662709712982,0.15103252232074738,0.15267232060432434,0.14510589838027954,0.151927188038826,-0.004406936466693878,-0.0052457451820373535,0.005180768668651581,0.004051372408866882,269,3,661,2,6,-849.2227172851562,105.29177856445312,-4864.82080078125,30.43145179748535,283237.3125,500.5585632324219,165.75596618652344,167.08285522460938,159.44625854492188,159.44625854492188,14.494174003601074,1.0,0.0,0.0,0.0,0.0,1409.774169921875,0,0,255,0,0,0,3,3,63,0,109.55,68.07,3,True,244
1780064441.157,1,49637328,8599.9951171875,799.99951171875,5412.94140625,0.1358945369720459,0.3275117874145508,4.947930335998535,0.2184123992919922,-0.20143438875675201,30.47407341003418,-0.02454182133078575,0.06508518755435944,-0.00990777462720871,-2.0247955322265625,-0.007329930551350117,-0.00019881149637512863,0.40925124287605286,0.40175560116767883,0.49826744198799133,0.48555687069892883,0.14403970539569855,0.14459720253944397,0.13653375208377838,0.14528122544288635,96.8215103149414,96.51026153564453,97.88382720947266,97.68561553955078,0,0,0,0,0.0,0.0,0.0,0.0,0.0,0.0,0.0,0.0,0.042304571717977524,0.04386512190103531,-0.037654075771570206,-0.036396827548742294,0.15012365579605103,0.15110427141189575,0.1416308432817459,0.14977103471755981,-0.004248656332492828,-0.004891306161880493,0.005301445722579956,0.0042602792382240295,269,3,661,2,6,-849.4684448242188,105.29195404052734,-4864.9384765625,30.475521087646484,283643.625,500.5719299316406,165.74635314941406,167.0641326904297,159.44183349609375,159.44183349609375,14.494174003601074,1.0,0.0,0.0,0.0,0.0,1409.7830810546875,0,0,255,0,0,0,3,3,63,0,109.71,68.17,3,True,244
1780064441.166,1,49637343,8599.9951171875,799.99951171875,5420.68408203125,0.0003019571304321289,0.3787727952003479,4.975346088409424,0.19754505157470703,-0.20200712978839874,30.518327713012695,-0.026286032050848007,0.06938652694225311,-0.008973493240773678,-2.0241875648498535,-0.0075597926042973995,-0.00028675675275735557,0.4104273021221161,0.40512266755104065,0.5004416704177856,0.48835352063179016,0.14522822201251984,0.14516378939151764,0.13464367389678955,0.14459975063800812,96.98896026611328,96.6493148803711,98.01728820800781,97.8121337890625,0,0,0,0,0.0,0.0,0.0,0.0,0.0,0.0,0.0,0.0,0.03720224276185036,0.03864257037639618,-0.031742729246616364,-0.03052043728530407,0.14991745352745056,0.15021908283233643,0.13833481073379517,0.14778560400009155,-0.004147827625274658,-0.0046026259660720825,0.005479544401168823,0.0044893622398376465,269,3,661,2,6,-849.7150268554688,105.29219055175781,-4865.056640625,30.519630432128906,284055.875,500.5855712890625,165.7366485595703,167.04537963867188,159.43731689453125,159.43731689453125,14.494174003601074,1.0,0.0,0.0,0.0,0.0,1409.7919921875,0,0,255,0,0,0,3,3,63,0,109.87,68.27,3,True,244
1780064441.174,1,49637343,8599.9951171875,799.99951171875,5428.45263671875,0.19564437866210938,0.4299258291721344,4.795515060424805,0.17607879638671875,-0.20288166403770447,30.56214141845703,-0.027488283812999725,0.07306026667356491,-0.007954712025821209,-2.023549795150757,-0.007800200022757053,-0.0003657957713585347,0.4108816087245941,0.40764757990837097,0.5029579401016235,0.49200060963630676,0.14687876403331757,0.14618036150932312,0.13295027613639832,0.14385518431663513,97.15865325927734,96.79296875,98.14946746826172,97.93700408935547,0,0,0,0,0.0,0.0,0.0,0.0,0.0,0.0,0.0,0.0,0.03254193440079689,0.03387884050607681,-0.02584541030228138,-0.024632522836327553,0.150440514087677,0.1500549018383026,0.13543914258480072,0.1459488719701767,-0.00410887598991394,-0.004386149346828461,0.005685657262802124,0.004788108170032501,269,3,661,2,6,-849.9598388671875,105.29248809814453,-4865.173828125,30.563322067260742,284470.65625,500.5992431640625,165.7269744873047,167.0268096923828,159.43276977539062,159.43276977539062,14.494174003601074,1.0,0.0,0.0,0.0,0.0,1409.8009033203125,0,0,255,0,0,0,3,3,63,0,110.03,68.37,3,True,244
1780064441.186,1,49637359,8599.9951171875,799.99951171875,5436.3857421875,-0.5720349550247192,0.4543647766113281,5.1435465812683105,0.15428829193115234,-0.20413053035736084,30.60578155517578,-0.0280112586915493,0.0761289894580841,-0.006530981510877609,-2.022883653640747,-0.00804721936583519,-0.00043392114457674325,0.41079261898994446,0.40903982520103455,0.5057393908500671,0.49649032950401306,0.14960245788097382,0.14778032898902893,0.13137157261371613,0.14308388531208038,97.3386459350586,96.94407653808594,98.2796859741211,98.06196594238281,0,0,0,0,0.0,0.0,0.0,0.0,0.0,0.0,0.0,0.0,0.02895701490342617,0.030257495120167732,-0.020072363317012787,-0.018857387825846672,0.15237915515899658,0.15084609389305115,0.13289615511894226,0.14432117342948914,-0.00411650538444519,-0.004266783595085144,0.005913496017456055,0.005155876278877258,269,3,661,2,6,-850.2046508789062,105.29283905029297,-4865.29150390625,30.60685157775879,284892.21875,500.6131286621094,165.71728515625,167.00831604003906,159.4281768798828,159.4281768798828,14.494174003601074,1.0,0.0,0.0,0.0,0.0,1409.809814453125,0,0,255,0,0,0,3,2,63,0,110.18,68.47,3,True,244
1780064441.194,1,49637375,8599.9951171875,799.99951171875,5444.6240234375,0.06510472297668457,0.4861001968383789,4.740553855895996,0.1322469711303711,-0.2058226466178894,30.649738311767578,-0.027738800272345543,0.07862261682748795,-0.004903680644929409,-2.022186756134033,-0.008297072723507881,-0.0004889422561973333,0.41004082560539246,0.40914297103881836,0.5088523030281067,0.5012564659118652,0.15284791588783264,0.15072199702262878,0.12990933656692505,0.1424979418516159,97.5212631225586,97.11471557617188,98.41032409667969,98.19009399414062,0,0,0,0,0.0,0.0,0.0,0.0,0.0,0.0,0.0,0.0,0.025671642273664474,0.026975097134709358,-0.014449335634708405,-0.01320704910904169,0.15498876571655273,0.1531168669462204,0.1307104378938675,0.14310866594314575,-0.0041809603571891785,-0.0042579397559165955,0.006168484687805176,0.005546286702156067,269,3,661,2,6,-850.4522705078125,105.29325103759766,-4865.41015625,30.650711059570312,285328.15625,500.6274108886719,165.7074432373047,166.98965454101562,159.42347717285156,159.42347717285156,14.494174003601074,1.0,0.0,0.0,0.0,0.0,1409.8187255859375,0,0,255,0,0,0,3,2,63,0,110.34,68.56,3,True,244
